{
  "features": [
    {
      "type": "Feature",
      "properties": {
        "POINT_ID": 1,
        "NAME": "METRO Cash & Carry",
        "DESCRIPTIO": "Гипермаркет, Маршала Прошлякова ул., 14, Москва, 123458"
      },
      "geometry": {
        "type": "Point",
        "coordinates": [
          55.791851873032925,
          37.38846939858479
        ]
      }
    },
    {
      "type": "Feature",
      "properties": {
        "POINT_ID": 2,
        "NAME": "Перовский районный суд г. Москвы",
        "DESCRIPTIO": "Кусковская ул., 8, стр. 1, Москва, 111398"
      },
      "geometry": {
        "type": "Point",
        "coordinates": [
          55.738601272635144,
          37.77303971486927
        ]
      }
    },
    {
      "type": "Feature",
      "properties": {
        "POINT_ID": 3,
        "NAME": "ВЕГАС Кунцево",
        "DESCRIPTIO": "Торговый центр, МКАД 56 км, Немчиновка, Московская обл., 143025"
      },
      "geometry": {
        "type": "Point",
        "coordinates": [
          55.72247270232034,
          37.37938051195235
        ]
      }
    },
    {
      "type": "Feature",
      "properties": {
        "POINT_ID": 4,
        "NAME": "ФГБУ 'Национальный медико-хирургический Центр им. Н.И.Пирогова' МЗ РФ",
        "DESCRIPTIO": "Нижняя Первомайская ул., 70, Москва, 105203"
      },
      "geometry": {
        "type": "Point",
        "coordinates": [
          55.79193671676292,
          37.820493829502446
        ]
      }
    },
    {
      "type": "Feature",
      "properties": {
        "POINT_ID": 5,
        "NAME": "ТРК Красный кит",
        "DESCRIPTIO": "Шараповский пр-д, 2, Мытищи, Московская обл., 141006"
      },
      "geometry": {
        "type": "Point",
        "coordinates": [
          55.91900376039799,
          37.75827508848362
        ]
      }
    },
    {
      "type": "Feature",
      "properties": {
        "POINT_ID": 6,
        "NAME": "ТЦ 'Конфитюр'",
        "DESCRIPTIO": "Рождественская ул., 3, Железнодорожный, Московская обл., 143980"
      },
      "geometry": {
        "type": "Point",
        "coordinates": [
          55.743727882782395,
          38.00148634630053
        ]
      }
    },
    {
      "type": "Feature",
      "properties": {
        "POINT_ID": 7,
        "NAME": "Донской монастырь",
        "DESCRIPTIO": "ул. Донская, 1-3, Москва, 115419"
      },
      "geometry": {
        "type": "Point",
        "coordinates": [
          55.71522124722356,
          37.60171003724871
        ]
      }
    },
    {
      "type": "Feature",
      "properties": {
        "POINT_ID": 8,
        "NAME": "Выставка достижений народного хозяйства (ВДНХ)",
        "DESCRIPTIO": "пр-т Мира, 119, Москва, 129223"
      },
      "geometry": {
        "type": "Point",
        "coordinates": [
          55.83489947100478,
          37.62904384047331
        ]
      }
    },
    {
      "type": "Feature",
      "properties": {
        "POINT_ID": 9,
        "NAME": "Ново-Алексеевский монастырь",
        "DESCRIPTIO": "2-й Красносельский пер., 5с1, Москва, 107140"
      },
      "geometry": {
        "type": "Point",
        "coordinates": [
          55.78421530113272,
          37.6677849251729
        ]
      }
    },
    {
      "type": "Feature",
      "properties": {
        "POINT_ID": 10,
        "NAME": "Московский зоопарк",
        "DESCRIPTIO": "Б. Грузинская ул., 1, Москва, 123242"
      },
      "geometry": {
        "type": "Point",
        "coordinates": [
          55.76493690911921,
          37.57674596575583
        ]
      }
    }
  ]
}